{
"type": "FeatureCollection",
"features": [
{ "type": "Feature", "properties": { "frequency": 492, "city": null, "country": null, "latitude": 29.3644727, "longitude": 112.3905651 }, "geometry": { "type": "Point", "coordinates": [ 112.3905651, 29.3644727 ] } },
{ "type": "Feature", "properties": { "frequency": 446, "city": "London", "country": "United Kingdom", "latitude": 51.5073359, "longitude": -0.12765 }, "geometry": { "type": "Point", "coordinates": [ -0.12765, 51.5073359 ] } },
{ "type": "Feature", "properties": { "frequency": 57, "city": "Paris", "country": "France", "latitude": 48.8534951, "longitude": 2.3483915 }, "geometry": { "type": "Point", "coordinates": [ 2.3483915, 48.8534951 ] } },
{ "type": "Feature", "properties": { "frequency": 47, "city": "Edinburgh", "country": "United Kingdom", "latitude": 55.9533456, "longitude": -3.1883749 }, "geometry": { "type": "Point", "coordinates": [ -3.1883749, 55.9533456 ] } },
{ "type": "Feature", "properties": { "frequency": 43, "city": "New York", "country": "United States", "latitude": 40.7127281, "longitude": -74.0060152 }, "geometry": { "type": "Point", "coordinates": [ -74.0060152, 40.7127281 ] } },
{ "type": "Feature", "properties": { "frequency": 35, "city": "Glasgow", "country": "United Kingdom", "latitude": 55.861155, "longitude": -4.2501687 }, "geometry": { "type": "Point", "coordinates": [ -4.2501687, 55.861155 ] } },
{ "type": "Feature", "properties": { "frequency": 30, "city": "England", "country": "United Kingdom", "latitude": 52.5310214, "longitude": -1.2649062 }, "geometry": { "type": "Point", "coordinates": [ -1.2649062, 52.5310214 ] } },
{ "type": "Feature", "properties": { "frequency": 29, "city": "Dublin", "country": "Éire", "latitude": 53.3498006, "longitude": -6.2602964 }, "geometry": { "type": "Point", "coordinates": [ -6.2602964, 53.3498006 ] } },
{ "type": "Feature", "properties": { "frequency": 23, "city": "Liverpool", "country": "United Kingdom", "latitude": 53.4071991, "longitude": -2.99168 }, "geometry": { "type": "Point", "coordinates": [ -2.99168, 53.4071991 ] } },
{ "type": "Feature", "properties": { "frequency": 22, "city": "Birmingham", "country": "United Kingdom", "latitude": 52.4796992, "longitude": -1.9026911 }, "geometry": { "type": "Point", "coordinates": [ -1.9026911, 52.4796992 ] } },
{ "type": "Feature", "properties": { "frequency": 20, "city": "Bristol", "country": "United Kingdom", "latitude": 51.4538022, "longitude": -2.5972985 }, "geometry": { "type": "Point", "coordinates": [ -2.5972985, 51.4538022 ] } },
{ "type": "Feature", "properties": { "frequency": 17, "city": "Berlin", "country": "Deutschland", "latitude": 52.5170365, "longitude": 13.3888599 }, "geometry": { "type": "Point", "coordinates": [ 13.3888599, 52.5170365 ] } },
{ "type": "Feature", "properties": { "frequency": 17, "city": "Wien", "country": "Österreich", "latitude": 48.2083537, "longitude": 16.3725042 }, "geometry": { "type": "Point", "coordinates": [ 16.3725042, 48.2083537 ] } },
{ "type": "Feature", "properties": { "frequency": 16, "city": "Leeds", "country": "United Kingdom", "latitude": 53.7974185, "longitude": -1.5437941 }, "geometry": { "type": "Point", "coordinates": [ -1.5437941, 53.7974185 ] } },
{ "type": "Feature", "properties": { "frequency": 15, "city": "Warszawa", "country": "Polska", "latitude": 52.2319581, "longitude": 21.0067249 }, "geometry": { "type": "Point", "coordinates": [ 21.0067249, 52.2319581 ] } },
{ "type": "Feature", "properties": { "frequency": 15, "city": "United Kingdom", "country": "", "latitude": 54.7023545, "longitude": -3.2765753 }, "geometry": { "type": "Point", "coordinates": [ -3.2765753, 54.7023545 ] } },
{ "type": "Feature", "properties": { "frequency": 14, "city": "Los Angeles", "country": "United States", "latitude": 34.0536909, "longitude": -118.242766 }, "geometry": { "type": "Point", "coordinates": [ -118.242766, 34.0536909 ] } },
{ "type": "Feature", "properties": { "frequency": 14, "city": "Surrey", "country": "United Kingdom", "latitude": 51.2715316, "longitude": -0.34145235112909089 }, "geometry": { "type": "Point", "coordinates": [ -0.341452351129091, 51.2715316 ] } },
{ "type": "Feature", "properties": { "frequency": 14, "city": "Kent", "country": "United Kingdom", "latitude": 51.20707485, "longitude": 0.72103618134014436 }, "geometry": { "type": "Point", "coordinates": [ 0.721036181340144, 51.20707485 ] } },
{ "type": "Feature", "properties": { "frequency": 13, "city": "Norwich", "country": "United Kingdom", "latitude": 52.6285576, "longitude": 1.2923954 }, "geometry": { "type": "Point", "coordinates": [ 1.2923954, 52.6285576 ] } },
{ "type": "Feature", "properties": { "frequency": 12, "city": "Antwerpen", "country": "België", "latitude": 51.2211097, "longitude": 4.3997081 }, "geometry": { "type": "Point", "coordinates": [ 4.3997081, 51.2211097 ] } },
{ "type": "Feature", "properties": { "frequency": 12, "city": "Newcastle upon Tyne", "country": "United Kingdom", "latitude": 54.9738474, "longitude": -1.6131572 }, "geometry": { "type": "Point", "coordinates": [ -1.6131572, 54.9738474 ] } },
{ "type": "Feature", "properties": { "frequency": 12, "city": "Manchester", "country": "United Kingdom", "latitude": 53.4794892, "longitude": -2.2451148 }, "geometry": { "type": "Point", "coordinates": [ -2.2451148, 53.4794892 ] } },
{ "type": "Feature", "properties": { "frequency": 11, "city": "Chicago", "country": "United States", "latitude": 41.8755616, "longitude": -87.6244212 }, "geometry": { "type": "Point", "coordinates": [ -87.6244212, 41.8755616 ] } },
{ "type": "Feature", "properties": { "frequency": 11, "city": "Tokyo", "country": "Nihon", "latitude": 35.6812665, "longitude": 139.757653 }, "geometry": { "type": "Point", "coordinates": [ 139.757653, 35.6812665 ] } },
{ "type": "Feature", "properties": { "frequency": 11, "city": "Sheffield", "country": "United Kingdom", "latitude": 53.3806626, "longitude": -1.4702278 }, "geometry": { "type": "Point", "coordinates": [ -1.4702278, 53.3806626 ] } },
{ "type": "Feature", "properties": { "frequency": 10, "city": "Philadelphia", "country": "United States", "latitude": 39.9527237, "longitude": -75.1635262 }, "geometry": { "type": "Point", "coordinates": [ -75.1635262, 39.9527237 ] } },
{ "type": "Feature", "properties": { "frequency": 10, "city": "Moskva", "country": "Rossiya", "latitude": 55.7504461, "longitude": 37.6174943 }, "geometry": { "type": "Point", "coordinates": [ 37.6174943, 55.7504461 ] } },
{ "type": "Feature", "properties": { "frequency": 10, "city": "Sankt-Peterburg", "country": "Rossiya", "latitude": 59.938732, "longitude": 30.316229 }, "geometry": { "type": "Point", "coordinates": [ 30.316229, 59.938732 ] } },
{ "type": "Feature", "properties": { "frequency": 10, "city": "Amsterdam", "country": "Nederland", "latitude": 52.3730796, "longitude": 4.8924534 }, "geometry": { "type": "Point", "coordinates": [ 4.8924534, 52.3730796 ] } },
{ "type": "Feature", "properties": { "frequency": 10, "city": "Boston", "country": "United States", "latitude": 42.3554334, "longitude": -71.060511 }, "geometry": { "type": "Point", "coordinates": [ -71.060511, 42.3554334 ] } },
{ "type": "Feature", "properties": { "frequency": 10, "city": "Buenos Aires", "country": "Argentina", "latitude": -34.6075682, "longitude": -58.4370894 }, "geometry": { "type": "Point", "coordinates": [ -58.4370894, -34.6075682 ] } },
{ "type": "Feature", "properties": { "frequency": 10, "city": "Nottingham", "country": "United Kingdom", "latitude": 52.9534193, "longitude": -1.1496461 }, "geometry": { "type": "Point", "coordinates": [ -1.1496461, 52.9534193 ] } },
{ "type": "Feature", "properties": { "frequency": 10, "city": "Scotland", "country": "United Kingdom", "latitude": 56.7861112, "longitude": -4.1140518 }, "geometry": { "type": "Point", "coordinates": [ -4.1140518, 56.7861112 ] } },
{ "type": "Feature", "properties": { "frequency": 9, "city": "Oxford", "country": "United Kingdom", "latitude": 51.7520131, "longitude": -1.2578499 }, "geometry": { "type": "Point", "coordinates": [ -1.2578499, 51.7520131 ] } },
{ "type": "Feature", "properties": { "frequency": 9, "city": "Leicester", "country": "United Kingdom", "latitude": 52.6362, "longitude": -1.1331969 }, "geometry": { "type": "Point", "coordinates": [ -1.1331969, 52.6362 ] } },
{ "type": "Feature", "properties": { "frequency": 9, "city": "Québec", "country": "Canada", "latitude": 52.4760892, "longitude": -71.8258668 }, "geometry": { "type": "Point", "coordinates": [ -71.8258668, 52.4760892 ] } },
{ "type": "Feature", "properties": { "frequency": 9, "city": "Chelsea", "country": "United Kingdom", "latitude": 51.4875167, "longitude": -0.1687007 }, "geometry": { "type": "Point", "coordinates": [ -0.1687007, 51.4875167 ] } },
{ "type": "Feature", "properties": { "frequency": 9, "city": "France", "country": "", "latitude": 46.603354, "longitude": 1.8883335 }, "geometry": { "type": "Point", "coordinates": [ 1.8883335, 46.603354 ] } },
{ "type": "Feature", "properties": { "frequency": 9, "city": "Belfast", "country": "United Kingdom", "latitude": 54.596391, "longitude": -5.9301829 }, "geometry": { "type": "Point", "coordinates": [ -5.9301829, 54.596391 ] } },
{ "type": "Feature", "properties": { "frequency": 9, "city": "Melbourne", "country": "Australia", "latitude": -37.8142454, "longitude": 144.9631732 }, "geometry": { "type": "Point", "coordinates": [ 144.9631732, -37.8142454 ] } },
{ "type": "Feature", "properties": { "frequency": 9, "city": "Brooklyn", "country": "United States", "latitude": 40.6526006, "longitude": -73.9497211 }, "geometry": { "type": "Point", "coordinates": [ -73.9497211, 40.6526006 ] } },
{ "type": "Feature", "properties": { "frequency": 9, "city": "Roma", "country": "Italia", "latitude": 41.8933203, "longitude": 12.4829321 }, "geometry": { "type": "Point", "coordinates": [ 12.4829321, 41.8933203 ] } },
{ "type": "Feature", "properties": { "frequency": 8, "city": "Southampton", "country": "United Kingdom", "latitude": 50.9025349, "longitude": -1.404189 }, "geometry": { "type": "Point", "coordinates": [ -1.404189, 50.9025349 ] } },
{ "type": "Feature", "properties": { "frequency": 8, "city": "Lisboa", "country": "Portugal", "latitude": 38.7077507, "longitude": -9.1365919 }, "geometry": { "type": "Point", "coordinates": [ -9.1365919, 38.7077507 ] } },
{ "type": "Feature", "properties": { "frequency": 8, "city": "Plymouth", "country": "United Kingdom", "latitude": 50.3712659, "longitude": -4.1425658 }, "geometry": { "type": "Point", "coordinates": [ -4.1425658, 50.3712659 ] } },
{ "type": "Feature", "properties": { "frequency": 8, "city": "São Paulo", "country": "Brasil", "latitude": -23.5506507, "longitude": -46.6333824 }, "geometry": { "type": "Point", "coordinates": [ -46.6333824, -23.5506507 ] } },
{ "type": "Feature", "properties": { "frequency": 8, "city": "Deutschland", "country": "", "latitude": 51.1638175, "longitude": 10.4478313 }, "geometry": { "type": "Point", "coordinates": [ 10.4478313, 51.1638175 ] } },
{ "type": "Feature", "properties": { "frequency": 8, "city": "Bradford", "country": "United Kingdom", "latitude": 53.7944229, "longitude": -1.7519186 }, "geometry": { "type": "Point", "coordinates": [ -1.7519186, 53.7944229 ] } },
{ "type": "Feature", "properties": { "frequency": 8, "city": "Johannesburg", "country": "South Africa", "latitude": -26.205, "longitude": 28.049722 }, "geometry": { "type": "Point", "coordinates": [ 28.049722, -26.205 ] } },
{ "type": "Feature", "properties": { "frequency": 8, "city": "United States", "country": "", "latitude": 39.7837304, "longitude": -100.445882 }, "geometry": { "type": "Point", "coordinates": [ -100.445882, 39.7837304 ] } },
{ "type": "Feature", "properties": { "frequency": 8, "city": "Cheshire", "country": "United Kingdom", "latitude": 53.2141028, "longitude": -2.4717700860712051 }, "geometry": { "type": "Point", "coordinates": [ -2.471770086071205, 53.2141028 ] } },
{ "type": "Feature", "properties": { "frequency": 8, "city": "York", "country": "United Kingdom", "latitude": 53.9590555, "longitude": -1.0815361 }, "geometry": { "type": "Point", "coordinates": [ -1.0815361, 53.9590555 ] } },
{ "type": "Feature", "properties": { "frequency": 7, "city": "Polska", "country": "", "latitude": 52.215933, "longitude": 19.134422 }, "geometry": { "type": "Point", "coordinates": [ 19.134422, 52.215933 ] } },
{ "type": "Feature", "properties": { "frequency": 7, "city": "Brighton", "country": "United Kingdom", "latitude": 50.8214626, "longitude": -0.1400561 }, "geometry": { "type": "Point", "coordinates": [ -0.1400561, 50.8214626 ] } },
{ "type": "Feature", "properties": { "frequency": 7, "city": "Hampstead", "country": "United Kingdom", "latitude": 51.55653, "longitude": -0.1783011 }, "geometry": { "type": "Point", "coordinates": [ -0.1783011, 51.55653 ] } },
{ "type": "Feature", "properties": { "frequency": 7, "city": "Croydon", "country": "United Kingdom", "latitude": 51.3713049, "longitude": -0.101957 }, "geometry": { "type": "Point", "coordinates": [ -0.101957, 51.3713049 ] } },
{ "type": "Feature", "properties": { "frequency": 6, "city": "Bruxelles", "country": "België", "latitude": 50.8465573, "longitude": 4.351697 }, "geometry": { "type": "Point", "coordinates": [ 4.351697, 50.8465573 ] } },
{ "type": "Feature", "properties": { "frequency": 6, "city": "Ciudad de México", "country": "México", "latitude": 19.4326296, "longitude": -99.1331785 }, "geometry": { "type": "Point", "coordinates": [ -99.1331785, 19.4326296 ] } },
{ "type": "Feature", "properties": { "frequency": 6, "city": "Stockholm", "country": "Sverige", "latitude": 59.3251172, "longitude": 18.0710935 }, "geometry": { "type": "Point", "coordinates": [ 18.0710935, 59.3251172 ] } },
{ "type": "Feature", "properties": { "frequency": 6, "city": "Torino", "country": "Italia", "latitude": 45.0677551, "longitude": 7.6824892 }, "geometry": { "type": "Point", "coordinates": [ 7.6824892, 45.0677551 ] } },
{ "type": "Feature", "properties": { "frequency": 6, "city": "Dorset", "country": "United Kingdom", "latitude": 50.79683685, "longitude": -2.3447322612430601 }, "geometry": { "type": "Point", "coordinates": [ -2.34473226124306, 50.79683685 ] } },
{ "type": "Feature", "properties": { "frequency": 6, "city": "Hampshire", "country": "United Kingdom", "latitude": 51.04483545, "longitude": -1.2434093597173146 }, "geometry": { "type": "Point", "coordinates": [ -1.243409359717315, 51.04483545 ] } },
{ "type": "Feature", "properties": { "frequency": 6, "city": "Wolverhampton", "country": "United Kingdom", "latitude": 52.5847651, "longitude": -2.127567 }, "geometry": { "type": "Point", "coordinates": [ -2.127567, 52.5847651 ] } },
{ "type": "Feature", "properties": { "frequency": 6, "city": "Nantes", "country": "France", "latitude": 47.2186371, "longitude": -1.5541362 }, "geometry": { "type": "Point", "coordinates": [ -1.5541362, 47.2186371 ] } },
{ "type": "Feature", "properties": { "frequency": 6, "city": "Lincolnshire", "country": "United Kingdom", "latitude": 53.1823034, "longitude": -0.2031208542548153 }, "geometry": { "type": "Point", "coordinates": [ -0.203120854254815, 53.1823034 ] } },
{ "type": "Feature", "properties": { "frequency": 6, "city": "Portsmouth", "country": "United Kingdom", "latitude": 50.8036831, "longitude": -1.075614 }, "geometry": { "type": "Point", "coordinates": [ -1.075614, 50.8036831 ] } },
{ "type": "Feature", "properties": { "frequency": 6, "city": "Lancashire", "country": "United Kingdom", "latitude": 53.8611703, "longitude": -2.5650887919475496 }, "geometry": { "type": "Point", "coordinates": [ -2.56508879194755, 53.8611703 ] } },
{ "type": "Feature", "properties": { "frequency": 6, "city": "Hamburg", "country": "Deutschland", "latitude": 53.550341, "longitude": 10.000654 }, "geometry": { "type": "Point", "coordinates": [ 10.000654, 53.550341 ] } },
{ "type": "Feature", "properties": { "frequency": 6, "city": "La Habana", "country": "Cuba", "latitude": 23.135305, "longitude": -82.3589631 }, "geometry": { "type": "Point", "coordinates": [ -82.3589631, 23.135305 ] } },
{ "type": "Feature", "properties": { "frequency": 6, "city": "Detroit", "country": "United States", "latitude": 42.3315509, "longitude": -83.0466403 }, "geometry": { "type": "Point", "coordinates": [ -83.0466403, 42.3315509 ] } },
{ "type": "Feature", "properties": { "frequency": 6, "city": "Rio de Janeiro", "country": "Brasil", "latitude": -22.9110137, "longitude": -43.2093727 }, "geometry": { "type": "Point", "coordinates": [ -43.2093727, -22.9110137 ] } },
{ "type": "Feature", "properties": { "frequency": 6, "city": "Barcelona", "country": "España", "latitude": 41.3828939, "longitude": 2.1774322 }, "geometry": { "type": "Point", "coordinates": [ 2.1774322, 41.3828939 ] } },
{ "type": "Feature", "properties": { "frequency": 6, "city": "Magyarország", "country": "", "latitude": 47.1817585, "longitude": 19.5060937 }, "geometry": { "type": "Point", "coordinates": [ 19.5060937, 47.1817585 ] } },
{ "type": "Feature", "properties": { "frequency": 6, "city": "Cambridge", "country": "United Kingdom", "latitude": 52.2055314, "longitude": 0.1186637 }, "geometry": { "type": "Point", "coordinates": [ 0.1186637, 52.2055314 ] } },
{ "type": "Feature", "properties": { "frequency": 6, "city": "München", "country": "Deutschland", "latitude": 48.1371079, "longitude": 11.5753822 }, "geometry": { "type": "Point", "coordinates": [ 11.5753822, 48.1371079 ] } },
{ "type": "Feature", "properties": { "frequency": 6, "city": "Cape Town", "country": "South Africa", "latitude": -33.928992, "longitude": 18.417396 }, "geometry": { "type": "Point", "coordinates": [ 18.417396, -33.928992 ] } },
{ "type": "Feature", "properties": { "frequency": 6, "city": "Aberdeen", "country": "United Kingdom", "latitude": 57.1482429, "longitude": -2.0928095 }, "geometry": { "type": "Point", "coordinates": [ -2.0928095, 57.1482429 ] } },
{ "type": "Feature", "properties": { "frequency": 6, "city": "Zürich", "country": "Schweiz", "latitude": 47.3744489, "longitude": 8.5410422 }, "geometry": { "type": "Point", "coordinates": [ 8.5410422, 47.3744489 ] } },
{ "type": "Feature", "properties": { "frequency": 5, "city": "Leicestershire", "country": "United Kingdom", "latitude": 52.68491375, "longitude": -1.1847653085946246 }, "geometry": { "type": "Point", "coordinates": [ -1.184765308594625, 52.68491375 ] } },
{ "type": "Feature", "properties": { "frequency": 5, "city": "Wigan", "country": "United Kingdom", "latitude": 53.5457188, "longitude": -2.6264624 }, "geometry": { "type": "Point", "coordinates": [ -2.6264624, 53.5457188 ] } },
{ "type": "Feature", "properties": { "frequency": 5, "city": "Worcester", "country": "United Kingdom", "latitude": 52.1911849, "longitude": -2.2206585 }, "geometry": { "type": "Point", "coordinates": [ -2.2206585, 52.1911849 ] } },
{ "type": "Feature", "properties": { "frequency": 5, "city": "Northampton", "country": "United Kingdom", "latitude": 52.23433665, "longitude": -0.90280727681858286 }, "geometry": { "type": "Point", "coordinates": [ -0.902807276818583, 52.23433665 ] } },
{ "type": "Feature", "properties": { "frequency": 5, "city": "Tehran", "country": "Îran", "latitude": 35.6892523, "longitude": 51.3896004 }, "geometry": { "type": "Point", "coordinates": [ 51.3896004, 35.6892523 ] } },
{ "type": "Feature", "properties": { "frequency": 5, "city": "Kiyev", "country": "Ukrayina", "latitude": 50.4500336, "longitude": 30.5241361 }, "geometry": { "type": "Point", "coordinates": [ 30.5241361, 50.4500336 ] } },
{ "type": "Feature", "properties": { "frequency": 5, "city": "Washington", "country": "United States", "latitude": 38.8950368, "longitude": -77.0365427 }, "geometry": { "type": "Point", "coordinates": [ -77.0365427, 38.8950368 ] } },
{ "type": "Feature", "properties": { "frequency": 5, "city": "Milano", "country": "Italia", "latitude": 45.4641943, "longitude": 9.1896346 }, "geometry": { "type": "Point", "coordinates": [ 9.1896346, 45.4641943 ] } },
{ "type": "Feature", "properties": { "frequency": 5, "city": "Cork", "country": "Éire", "latitude": 51.897077, "longitude": -8.4654674 }, "geometry": { "type": "Point", "coordinates": [ -8.4654674, 51.897077 ] } },
{ "type": "Feature", "properties": { "frequency": 5, "city": "Firenze", "country": "Italia", "latitude": 43.7698712, "longitude": 11.2555757 }, "geometry": { "type": "Point", "coordinates": [ 11.2555757, 43.7698712 ] } },
{ "type": "Feature", "properties": { "frequency": 5, "city": "Dundee", "country": "United Kingdom", "latitude": 56.4605938, "longitude": -2.97019 }, "geometry": { "type": "Point", "coordinates": [ -2.97019, 56.4605938 ] } },
{ "type": "Feature", "properties": { "frequency": 5, "city": "Stuttgart", "country": "Deutschland", "latitude": 48.7784485, "longitude": 9.1800132 }, "geometry": { "type": "Point", "coordinates": [ 9.1800132, 48.7784485 ] } },
{ "type": "Feature", "properties": { "frequency": 5, "city": "Essex", "country": "United Kingdom", "latitude": 51.77046785, "longitude": 0.46466977412300386 }, "geometry": { "type": "Point", "coordinates": [ 0.464669774123004, 51.77046785 ] } },
{ "type": "Feature", "properties": { "frequency": 5, "city": "Pittsburgh", "country": "United States", "latitude": 40.4416941, "longitude": -79.9900861 }, "geometry": { "type": "Point", "coordinates": [ -79.9900861, 40.4416941 ] } },
{ "type": "Feature", "properties": { "frequency": 5, "city": "Leipzig", "country": "Deutschland", "latitude": 51.3406321, "longitude": 12.3747329 }, "geometry": { "type": "Point", "coordinates": [ 12.3747329, 51.3406321 ] } },
{ "type": "Feature", "properties": { "frequency": 5, "city": "Great Britain", "country": "United Kingdom", "latitude": 54.31536155, "longitude": -1.9180234948012402 }, "geometry": { "type": "Point", "coordinates": [ -1.91802349480124, 54.31536155 ] } },
{ "type": "Feature", "properties": { "frequency": 5, "city": "Suffolk", "country": "United Kingdom", "latitude": 52.24100135, "longitude": 1.0466830312565236 }, "geometry": { "type": "Point", "coordinates": [ 1.046683031256524, 52.24100135 ] } },
{ "type": "Feature", "properties": { "frequency": 5, "city": "België", "country": "", "latitude": 50.6402809, "longitude": 4.6667145 }, "geometry": { "type": "Point", "coordinates": [ 4.6667145, 50.6402809 ] } },
{ "type": "Feature", "properties": { "frequency": 5, "city": "Athínai", "country": "Ellás", "latitude": 37.9872279, "longitude": 23.7643591 }, "geometry": { "type": "Point", "coordinates": [ 23.7643591, 37.9872279 ] } },
{ "type": "Feature", "properties": { "frequency": 5, "city": "Shanghai", "country": "Zhonghua", "latitude": 30.979305, "longitude": 121.501842 }, "geometry": { "type": "Point", "coordinates": [ 121.501842, 30.979305 ] } },
{ "type": "Feature", "properties": { "frequency": 5, "city": "Yorkshire", "country": "United Kingdom", "latitude": 53.9825271, "longitude": -1.3852499932684972 }, "geometry": { "type": "Point", "coordinates": [ -1.385249993268497, 53.9825271 ] } },
{ "type": "Feature", "properties": { "frequency": 5, "city": "Bayrut", "country": "Al-Lubnan", "latitude": 33.88922645, "longitude": 35.502558528952321 }, "geometry": { "type": "Point", "coordinates": [ 35.502558528952321, 33.88922645 ] } },
{ "type": "Feature", "properties": { "frequency": 5, "city": "Brasil", "country": "", "latitude": -10.3333333, "longitude": -53.2 }, "geometry": { "type": "Point", "coordinates": [ -53.2, -10.3333333 ] } },
{ "type": "Feature", "properties": { "frequency": 5, "city": "Preston", "country": "United Kingdom", "latitude": 53.7593363, "longitude": -2.6992717 }, "geometry": { "type": "Point", "coordinates": [ -2.6992717, 53.7593363 ] } },
{ "type": "Feature", "properties": { "frequency": 5, "city": "København", "country": "Danmark", "latitude": 55.6867243, "longitude": 12.5700724 }, "geometry": { "type": "Point", "coordinates": [ 12.5700724, 55.6867243 ] } },
{ "type": "Feature", "properties": { "frequency": 5, "city": "Al-Qahirah", "country": "Misr", "latitude": 30.0443879, "longitude": 31.2357257 }, "geometry": { "type": "Point", "coordinates": [ 31.2357257, 30.0443879 ] } },
{ "type": "Feature", "properties": { "frequency": 5, "city": "Madrid", "country": "España", "latitude": 40.4167047, "longitude": -3.7035825 }, "geometry": { "type": "Point", "coordinates": [ -3.7035825, 40.4167047 ] } },
{ "type": "Feature", "properties": { "frequency": 5, "city": "Wales", "country": "United Kingdom", "latitude": 52.2928116, "longitude": -3.73893 }, "geometry": { "type": "Point", "coordinates": [ -3.73893, 52.2928116 ] } },
{ "type": "Feature", "properties": { "frequency": 4, "city": "Reading", "country": "United Kingdom", "latitude": 51.456659, "longitude": -0.9696512 }, "geometry": { "type": "Point", "coordinates": [ -0.9696512, 51.456659 ] } },
{ "type": "Feature", "properties": { "frequency": 4, "city": "Genève", "country": "Schweiz", "latitude": 46.2017559, "longitude": 6.1466014 }, "geometry": { "type": "Point", "coordinates": [ 6.1466014, 46.2017559 ] } },
{ "type": "Feature", "properties": { "frequency": 4, "city": "Luton", "country": "United Kingdom", "latitude": 51.8784385, "longitude": -0.4152837 }, "geometry": { "type": "Point", "coordinates": [ -0.4152837, 51.8784385 ] } },
{ "type": "Feature", "properties": { "frequency": 4, "city": "San Francisco", "country": "United States", "latitude": 37.7790262, "longitude": -122.419906 }, "geometry": { "type": "Point", "coordinates": [ -122.419906, 37.7790262 ] } },
{ "type": "Feature", "properties": { "frequency": 4, "city": "Greater London", "country": "United Kingdom", "latitude": 51.4893335, "longitude": -0.14405508452768728 }, "geometry": { "type": "Point", "coordinates": [ -0.144055084527687, 51.4893335 ] } },
{ "type": "Feature", "properties": { "frequency": 4, "city": "Doncaster", "country": "United Kingdom", "latitude": 53.5227681, "longitude": -1.1335312 }, "geometry": { "type": "Point", "coordinates": [ -1.1335312, 53.5227681 ] } },
{ "type": "Feature", "properties": { "frequency": 4, "city": "Norfolk", "country": "United Kingdom", "latitude": 52.666667, "longitude": 1.0 }, "geometry": { "type": "Point", "coordinates": [ 1.0, 52.666667 ] } },
{ "type": "Feature", "properties": { "frequency": 4, "city": "Chelmsford", "country": "United Kingdom", "latitude": 51.7345329, "longitude": 0.4730532 }, "geometry": { "type": "Point", "coordinates": [ 0.4730532, 51.7345329 ] } },
{ "type": "Feature", "properties": { "frequency": 4, "city": "Düsseldorf", "country": "Deutschland", "latitude": 51.2254018, "longitude": 6.7763137 }, "geometry": { "type": "Point", "coordinates": [ 6.7763137, 51.2254018 ] } },
{ "type": "Feature", "properties": { "frequency": 4, "city": "Cheltenham", "country": "United Kingdom", "latitude": 51.8995685, "longitude": -2.0711559 }, "geometry": { "type": "Point", "coordinates": [ -2.0711559, 51.8995685 ] } },
{ "type": "Feature", "properties": { "frequency": 4, "city": "Hannover", "country": "Deutschland", "latitude": 52.3744779, "longitude": 9.7385532 }, "geometry": { "type": "Point", "coordinates": [ 9.7385532, 52.3744779 ] } },
{ "type": "Feature", "properties": { "frequency": 4, "city": "Nottinghamshire", "country": "United Kingdom", "latitude": 53.1459288, "longitude": -1.0214971168122484 }, "geometry": { "type": "Point", "coordinates": [ -1.021497116812248, 53.1459288 ] } },
{ "type": "Feature", "properties": { "frequency": 4, "city": "Chester", "country": "United Kingdom", "latitude": 53.1908873, "longitude": -2.8908955 }, "geometry": { "type": "Point", "coordinates": [ -2.8908955, 53.1908873 ] } },
{ "type": "Feature", "properties": { "frequency": 4, "city": "Venezia", "country": "Italia", "latitude": 45.4371908, "longitude": 12.3345898 }, "geometry": { "type": "Point", "coordinates": [ 12.3345898, 45.4371908 ] } },
{ "type": "Feature", "properties": { "frequency": 4, "city": "Bharat", "country": "", "latitude": 22.3511148, "longitude": 78.6677428 }, "geometry": { "type": "Point", "coordinates": [ 78.6677428, 22.3511148 ] } },
{ "type": "Feature", "properties": { "frequency": 4, "city": "Derbyshire", "country": "United Kingdom", "latitude": 53.1185033, "longitude": -1.5566179305872214 }, "geometry": { "type": "Point", "coordinates": [ -1.556617930587221, 53.1185033 ] } },
{ "type": "Feature", "properties": { "frequency": 4, "city": "Birkenhead", "country": "United Kingdom", "latitude": 53.3895177, "longitude": -3.0248007 }, "geometry": { "type": "Point", "coordinates": [ -3.0248007, 53.3895177 ] } },
{ "type": "Feature", "properties": { "frequency": 4, "city": "Oakland", "country": "United States", "latitude": 37.8044557, "longitude": -122.271356 }, "geometry": { "type": "Point", "coordinates": [ -122.271356, 37.8044557 ] } },
{ "type": "Feature", "properties": { "frequency": 4, "city": "Wakefield", "country": "United Kingdom", "latitude": 53.6829541, "longitude": -1.4967286 }, "geometry": { "type": "Point", "coordinates": [ -1.4967286, 53.6829541 ] } },
{ "type": "Feature", "properties": { "frequency": 4, "city": "Italia", "country": "", "latitude": 42.6384261, "longitude": 12.674297 }, "geometry": { "type": "Point", "coordinates": [ 12.674297, 42.6384261 ] } },
{ "type": "Feature", "properties": { "frequency": 4, "city": "Santa Monica", "country": "United States", "latitude": 34.0194704, "longitude": -118.491227 }, "geometry": { "type": "Point", "coordinates": [ -118.491227, 34.0194704 ] } },
{ "type": "Feature", "properties": { "frequency": 4, "city": "Cincinnati", "country": "United States", "latitude": 39.1014537, "longitude": -84.5124602 }, "geometry": { "type": "Point", "coordinates": [ -84.5124602, 39.1014537 ] } },
{ "type": "Feature", "properties": { "frequency": 4, "city": "Huddersfield", "country": "United Kingdom", "latitude": 53.6466645, "longitude": -1.7822482 }, "geometry": { "type": "Point", "coordinates": [ -1.7822482, 53.6466645 ] } },
{ "type": "Feature", "properties": { "frequency": 4, "city": "Santiago", "country": "Chile", "latitude": -33.4377756, "longitude": -70.6504502 }, "geometry": { "type": "Point", "coordinates": [ -70.6504502, -33.4377756 ] } },
{ "type": "Feature", "properties": { "frequency": 4, "city": "Vancouver", "country": "Canada", "latitude": 49.2608724, "longitude": -123.113952 }, "geometry": { "type": "Point", "coordinates": [ -123.113952, 49.2608724 ] } },
{ "type": "Feature", "properties": { "frequency": 4, "city": "Le Havre", "country": "France", "latitude": 49.4938975, "longitude": 0.1079732 }, "geometry": { "type": "Point", "coordinates": [ 0.1079732, 49.4938975 ] } },
{ "type": "Feature", "properties": { "frequency": 4, "city": "Cardiff", "country": "United Kingdom", "latitude": 51.4816546, "longitude": -3.1791934 }, "geometry": { "type": "Point", "coordinates": [ -3.1791934, 51.4816546 ] } },
{ "type": "Feature", "properties": { "frequency": 4, "city": "Eastbourne", "country": "United Kingdom", "latitude": 50.7664372, "longitude": 0.2781546 }, "geometry": { "type": "Point", "coordinates": [ 0.2781546, 50.7664372 ] } },
{ "type": "Feature", "properties": { "frequency": 4, "city": "Hackney", "country": "United Kingdom", "latitude": 51.5432402, "longitude": -0.0493621 }, "geometry": { "type": "Point", "coordinates": [ -0.0493621, 51.5432402 ] } },
{ "type": "Feature", "properties": { "frequency": 4, "city": "Köln", "country": "Deutschland", "latitude": 50.938361, "longitude": 6.959974 }, "geometry": { "type": "Point", "coordinates": [ 6.959974, 50.938361 ] } },
{ "type": "Feature", "properties": { "frequency": 4, "city": "Dresden", "country": "Deutschland", "latitude": 51.0493286, "longitude": 13.7381437 }, "geometry": { "type": "Point", "coordinates": [ 13.7381437, 51.0493286 ] } },
{ "type": "Feature", "properties": { "frequency": 4, "city": "Exeter", "country": "United Kingdom", "latitude": 50.7255794, "longitude": -3.5269497 }, "geometry": { "type": "Point", "coordinates": [ -3.5269497, 50.7255794 ] } },
{ "type": "Feature", "properties": { "frequency": 4, "city": "Bath", "country": "United Kingdom", "latitude": 51.3813864, "longitude": -2.3596963 }, "geometry": { "type": "Point", "coordinates": [ -2.3596963, 51.3813864 ] } },
{ "type": "Feature", "properties": { "frequency": 4, "city": "Budapest", "country": "Magyarország", "latitude": 47.48138955, "longitude": 19.146094126912459 }, "geometry": { "type": "Point", "coordinates": [ 19.146094126912459, 47.48138955 ] } },
{ "type": "Feature", "properties": { "frequency": 4, "city": "Scarborough", "country": "United Kingdom", "latitude": 54.2820009, "longitude": -0.4011868 }, "geometry": { "type": "Point", "coordinates": [ -0.4011868, 54.2820009 ] } },
{ "type": "Feature", "properties": { "frequency": 4, "city": "Bronx", "country": "United States", "latitude": 40.851039, "longitude": -73.840250277650611 }, "geometry": { "type": "Point", "coordinates": [ -73.840250277650611, 40.851039 ] } },
{ "type": "Feature", "properties": { "frequency": 4, "city": "Lietuva", "country": "", "latitude": 55.3500003, "longitude": 23.7499997 }, "geometry": { "type": "Point", "coordinates": [ 23.7499997, 55.3500003 ] } },
{ "type": "Feature", "properties": { "frequency": 4, "city": "Wallasey", "country": "United Kingdom", "latitude": 53.4241208, "longitude": -3.0394101 }, "geometry": { "type": "Point", "coordinates": [ -3.0394101, 53.4241208 ] } },
{ "type": "Feature", "properties": { "frequency": 4, "city": "Kingston-Upon-Hull", "country": "United Kingdom", "latitude": 53.7435722, "longitude": -0.3394758 }, "geometry": { "type": "Point", "coordinates": [ -0.3394758, 53.7435722 ] } },
{ "type": "Feature", "properties": { "frequency": 3, "city": "Greenwich", "country": "United Kingdom", "latitude": 51.4820845, "longitude": -0.0045417 }, "geometry": { "type": "Point", "coordinates": [ -0.0045417, 51.4820845 ] } },
{ "type": "Feature", "properties": { "frequency": 3, "city": "Lambeth", "country": "United Kingdom", "latitude": 51.4952111, "longitude": -0.1163354 }, "geometry": { "type": "Point", "coordinates": [ -0.1163354, 51.4952111 ] } },
{ "type": "Feature", "properties": { "frequency": 3, "city": "Cumbria", "country": "United Kingdom", "latitude": 54.6143136, "longitude": -2.9420899468770427 }, "geometry": { "type": "Point", "coordinates": [ -2.942089946877043, 54.6143136 ] } },
{ "type": "Feature", "properties": { "frequency": 3, "city": "Lima", "country": "Perú", "latitude": -12.0621065, "longitude": -77.0365256 }, "geometry": { "type": "Point", "coordinates": [ -77.0365256, -12.0621065 ] } },
{ "type": "Feature", "properties": { "frequency": 3, "city": "Middlesbrough", "country": "United Kingdom", "latitude": 54.5760419, "longitude": -1.2344047 }, "geometry": { "type": "Point", "coordinates": [ -1.2344047, 54.5760419 ] } },
{ "type": "Feature", "properties": { "frequency": 3, "city": "Karachi", "country": "Pakistan", "latitude": 24.8546842, "longitude": 67.0207055 }, "geometry": { "type": "Point", "coordinates": [ 67.0207055, 24.8546842 ] } },
{ "type": "Feature", "properties": { "frequency": 3, "city": "Caracas", "country": "Venezuela", "latitude": 10.5060934, "longitude": -66.9146008 }, "geometry": { "type": "Point", "coordinates": [ -66.9146008, 10.5060934 ] } },
{ "type": "Feature", "properties": { "frequency": 3, "city": "Buffalo", "country": "United States", "latitude": 42.8867166, "longitude": -78.8783922 }, "geometry": { "type": "Point", "coordinates": [ -78.8783922, 42.8867166 ] } },
{ "type": "Feature", "properties": { "frequency": 3, "city": "Hastings", "country": "United Kingdom", "latitude": 50.8553888, "longitude": 0.5824703 }, "geometry": { "type": "Point", "coordinates": [ 0.5824703, 50.8553888 ] } },
{ "type": "Feature", "properties": { "frequency": 3, "city": "Kendal", "country": "United Kingdom", "latitude": 54.3289795, "longitude": -2.747183 }, "geometry": { "type": "Point", "coordinates": [ -2.747183, 54.3289795 ] } },
{ "type": "Feature", "properties": { "frequency": 3, "city": "s Gravenhage", "country": "Nederland", "latitude": 52.0799838, "longitude": 4.3113461 }, "geometry": { "type": "Point", "coordinates": [ 4.3113461, 52.0799838 ] } },
{ "type": "Feature", "properties": { "frequency": 3, "city": "Canada", "country": "", "latitude": 61.0666922, "longitude": -107.991707 }, "geometry": { "type": "Point", "coordinates": [ -107.991707, 61.0666922 ] } },
{ "type": "Feature", "properties": { "frequency": 3, "city": "South Africa", "country": "", "latitude": -28.8166236, "longitude": 24.991639 }, "geometry": { "type": "Point", "coordinates": [ 24.991639, -28.8166236 ] } },
{ "type": "Feature", "properties": { "frequency": 3, "city": "Cleveland", "country": "United States", "latitude": 41.4996574, "longitude": -81.6936772 }, "geometry": { "type": "Point", "coordinates": [ -81.6936772, 41.4996574 ] } },
{ "type": "Feature", "properties": { "frequency": 3, "city": "Zhonghua", "country": "", "latitude": 29.8785, "longitude": 104.134 }, "geometry": { "type": "Point", "coordinates": [ 104.134, 29.8785 ] } },
{ "type": "Feature", "properties": { "frequency": 3, "city": "Ceská Republika", "country": "", "latitude": 49.7439047, "longitude": 15.3381061 }, "geometry": { "type": "Point", "coordinates": [ 15.3381061, 49.7439047 ] } },
{ "type": "Feature", "properties": { "frequency": 3, "city": "Carlisle", "country": "United Kingdom", "latitude": 54.8948478, "longitude": -2.9362311 }, "geometry": { "type": "Point", "coordinates": [ -2.9362311, 54.8948478 ] } },
{ "type": "Feature", "properties": { "frequency": 3, "city": "Down", "country": "United Kingdom", "latitude": 54.3518644, "longitude": -5.9616164750769309 }, "geometry": { "type": "Point", "coordinates": [ -5.961616475076931, 54.3518644 ] } },
{ "type": "Feature", "properties": { "frequency": 3, "city": "Delft", "country": "Nederland", "latitude": 51.9994572, "longitude": 4.3627245385439952 }, "geometry": { "type": "Point", "coordinates": [ 4.362724538543995, 51.9994572 ] } },
{ "type": "Feature", "properties": { "frequency": 3, "city": "Wimbledon", "country": "United Kingdom", "latitude": 51.4214787, "longitude": -0.2064027 }, "geometry": { "type": "Point", "coordinates": [ -0.2064027, 51.4214787 ] } },
{ "type": "Feature", "properties": { "frequency": 3, "city": "Derby", "country": "United Kingdom", "latitude": 52.9212617, "longitude": -1.4761491 }, "geometry": { "type": "Point", "coordinates": [ -1.4761491, 52.9212617 ] } },
{ "type": "Feature", "properties": { "frequency": 3, "city": "Saint Louis", "country": "United States", "latitude": 38.6280278, "longitude": -90.1910154 }, "geometry": { "type": "Point", "coordinates": [ -90.1910154, 38.6280278 ] } },
{ "type": "Feature", "properties": { "frequency": 3, "city": "Toronto", "country": "Canada", "latitude": 43.6534817, "longitude": -79.3839347 }, "geometry": { "type": "Point", "coordinates": [ -79.3839347, 43.6534817 ] } },
{ "type": "Feature", "properties": { "frequency": 3, "city": "Lausanne", "country": "Schweiz", "latitude": 46.5218269, "longitude": 6.6327025 }, "geometry": { "type": "Point", "coordinates": [ 6.6327025, 46.5218269 ] } },
{ "type": "Feature", "properties": { "frequency": 3, "city": "Devon", "country": "United Kingdom", "latitude": 50.7241405, "longitude": -3.6607788161410735 }, "geometry": { "type": "Point", "coordinates": [ -3.660778816141073, 50.7241405 ] } },
{ "type": "Feature", "properties": { "frequency": 3, "city": "Éire", "country": "", "latitude": 52.865196, "longitude": -7.9794599 }, "geometry": { "type": "Point", "coordinates": [ -7.9794599, 52.865196 ] } },
{ "type": "Feature", "properties": { "frequency": 3, "city": "Montréal", "country": "Canada", "latitude": 45.5031824, "longitude": -73.5698065 }, "geometry": { "type": "Point", "coordinates": [ -73.5698065, 45.5031824 ] } },
{ "type": "Feature", "properties": { "frequency": 3, "city": "Lincoln", "country": "United Kingdom", "latitude": 53.2336301, "longitude": -0.5392172 }, "geometry": { "type": "Point", "coordinates": [ -0.5392172, 53.2336301 ] } },
{ "type": "Feature", "properties": { "frequency": 3, "city": "Bogotá", "country": "Colombia", "latitude": 4.6529539, "longitude": -74.0835643 }, "geometry": { "type": "Point", "coordinates": [ -74.0835643, 4.6529539 ] } },
{ "type": "Feature", "properties": { "frequency": 3, "city": "Oldham", "country": "United Kingdom", "latitude": 53.5415797, "longitude": -2.1147831 }, "geometry": { "type": "Point", "coordinates": [ -2.1147831, 53.5415797 ] } },
{ "type": "Feature", "properties": { "frequency": 3, "city": "Bournemouth", "country": "United Kingdom", "latitude": 50.720097, "longitude": -1.8799272 }, "geometry": { "type": "Point", "coordinates": [ -1.8799272, 50.720097 ] } },
{ "type": "Feature", "properties": { "frequency": 3, "city": "Canterbury", "country": "United Kingdom", "latitude": 51.2800275, "longitude": 1.0802533 }, "geometry": { "type": "Point", "coordinates": [ 1.0802533, 51.2800275 ] } },
{ "type": "Feature", "properties": { "frequency": 3, "city": "Rossiya", "country": "", "latitude": 64.6863136, "longitude": 97.7453061 }, "geometry": { "type": "Point", "coordinates": [ 97.7453061, 64.6863136 ] } },
{ "type": "Feature", "properties": { "frequency": 3, "city": "Somerset", "country": "United Kingdom", "latitude": 51.16175085, "longitude": -3.0753867062227487 }, "geometry": { "type": "Point", "coordinates": [ -3.075386706222749, 51.16175085 ] } },
{ "type": "Feature", "properties": { "frequency": 3, "city": "Chertsey", "country": "United Kingdom", "latitude": 51.392296, "longitude": -0.5038294 }, "geometry": { "type": "Point", "coordinates": [ -0.5038294, 51.392296 ] } },
{ "type": "Feature", "properties": { "frequency": 3, "city": "Bombay", "country": "Bharat", "latitude": 19.0785451, "longitude": 72.878176 }, "geometry": { "type": "Point", "coordinates": [ 72.878176, 19.0785451 ] } },
{ "type": "Feature", "properties": { "frequency": 3, "city": "Buckinghamshire", "country": "United Kingdom", "latitude": 51.840894, "longitude": -0.89980735874807949 }, "geometry": { "type": "Point", "coordinates": [ -0.899807358748079, 51.840894 ] } },
{ "type": "Feature", "properties": { "frequency": 3, "city": "Bromley", "country": "United Kingdom", "latitude": 51.4028046, "longitude": 0.0148142 }, "geometry": { "type": "Point", "coordinates": [ 0.0148142, 51.4028046 ] } },
{ "type": "Feature", "properties": { "frequency": 3, "city": "Blackburn", "country": "United Kingdom", "latitude": 53.749326, "longitude": -2.4840566 }, "geometry": { "type": "Point", "coordinates": [ -2.4840566, 53.749326 ] } },
{ "type": "Feature", "properties": { "frequency": 3, "city": "Kettering", "country": "United Kingdom", "latitude": 52.3994233, "longitude": -0.728004 }, "geometry": { "type": "Point", "coordinates": [ -0.728004, 52.3994233 ] } },
{ "type": "Feature", "properties": { "frequency": 3, "city": "Österreich", "country": "", "latitude": 47.59397, "longitude": 14.12456 }, "geometry": { "type": "Point", "coordinates": [ 14.12456, 47.59397 ] } },
{ "type": "Feature", "properties": { "frequency": 3, "city": "Gloucester", "country": "United Kingdom", "latitude": 51.8653705, "longitude": -2.2458192 }, "geometry": { "type": "Point", "coordinates": [ -2.2458192, 51.8653705 ] } },
{ "type": "Feature", "properties": { "frequency": 3, "city": "Pasedena", "country": "United States", "latitude": 34.2379038, "longitude": -102.7422723 }, "geometry": { "type": "Point", "coordinates": [ -102.7422723, 34.2379038 ] } },
{ "type": "Feature", "properties": { "frequency": 3, "city": "Islington", "country": "United Kingdom", "latitude": 51.5384287, "longitude": -0.0999051 }, "geometry": { "type": "Point", "coordinates": [ -0.0999051, 51.5384287 ] } },
{ "type": "Feature", "properties": { "frequency": 3, "city": "Dunedin", "country": "New Zealand", "latitude": -45.8740984, "longitude": 170.5035755 }, "geometry": { "type": "Point", "coordinates": [ 170.503575500000011, -45.8740984 ] } },
{ "type": "Feature", "properties": { "frequency": 3, "city": "Staffordshire", "country": "United Kingdom", "latitude": 52.8246942, "longitude": -2.0074546723348115 }, "geometry": { "type": "Point", "coordinates": [ -2.007454672334811, 52.8246942 ] } },
{ "type": "Feature", "properties": { "frequency": 3, "city": "North Yorkshire", "country": "United Kingdom", "latitude": 54.13453275, "longitude": -1.4986284912395449 }, "geometry": { "type": "Point", "coordinates": [ -1.498628491239545, 54.13453275 ] } },
{ "type": "Feature", "properties": { "frequency": 3, "city": "Cornwall", "country": "United Kingdom", "latitude": 50.416667, "longitude": -4.75 }, "geometry": { "type": "Point", "coordinates": [ -4.75, 50.416667 ] } },
{ "type": "Feature", "properties": { "frequency": 3, "city": "Kansas City", "country": "United States", "latitude": 39.100105, "longitude": -94.5781416 }, "geometry": { "type": "Point", "coordinates": [ -94.5781416, 39.100105 ] } },
{ "type": "Feature", "properties": { "frequency": 3, "city": "Minneapolis", "country": "United States", "latitude": 44.9772995, "longitude": -93.2654692 }, "geometry": { "type": "Point", "coordinates": [ -93.2654692, 44.9772995 ] } },
{ "type": "Feature", "properties": { "frequency": 3, "city": "Nihon", "country": "", "latitude": 36.5748441, "longitude": 139.2394179 }, "geometry": { "type": "Point", "coordinates": [ 139.2394179, 36.5748441 ] } }
]
}
